{
"type": "FeatureCollection",
"name": "26no_integradas_geojson",
"crs": { "type": "name", "properties": { "name": "urn:ogc:def:crs:OGC:1.3:CRS84" } },
"features": [
{ "type": "Feature", "properties": { "PROYECTO": "RECONOCIMIENTO FACIAL FASE 1", "SITIO": 8, "ADMINISTRA": "MANUELA SAENZ", "SECTOR": "MANUELA SAENZ", "DIRECCION": "AV. GRAN COLOMBIA Y MIGUEL ESPINOZA", "MARCA": "HIKIVISION", "MODELO": "DS-2DF8A436IX-AEL", "SERIE": 240697708, "PLATAFORMA": "HIKCENTRAL", "N__CAM": 11, "TIPO": "PTZ", "LATITUD": -0.21603, "LONGUITUD": -78.503, "MEGAFONIA": "SI" }, "geometry": { "type": "Point", "coordinates": [ -78.503, -0.21603 ] } },
{ "type": "Feature", "properties": { "PROYECTO": "RECONOCIMIENTO FACIAL FASE 1", "SITIO": 13, "ADMINISTRA": "MANUELA SAENZ", "SECTOR": "MANUELA SAENZ", "DIRECCION": "JOSÉ ANTEPARA Y AV. PICHINCHA", "MARCA": "HIKIVISION", "MODELO": "DS-2DF8A436IX-AEL", "SERIE": 240697696, "PLATAFORMA": "HIKCENTRAL", "N__CAM": 16, "TIPO": "PTZ", "LATITUD": -0.21819, "LONGUITUD": -78.50576, "MEGAFONIA": "SI" }, "geometry": { "type": "Point", "coordinates": [ -78.50576, -0.21819 ] } },
{ "type": "Feature", "properties": { "PROYECTO": "RECONOCIMIENTO FACIAL FASE 1", "SITIO": 14, "ADMINISTRA": "MANUELA SAENZ", "SECTOR": "MANUELA SAENZ", "DIRECCION": "ORIENTE Y GUAYAQUIL", "MARCA": "HIKIVISION", "MODELO": "DS-2DF8A436IX-AEL", "SERIE": 240959227, "PLATAFORMA": "HIKCENTRAL", "N__CAM": 18, "TIPO": "PTZ", "LATITUD": -0.21802, "LONGUITUD": -78.50734, "MEGAFONIA": "SI" }, "geometry": { "type": "Point", "coordinates": [ -78.50734, -0.21802 ] } },
{ "type": "Feature", "properties": { "PROYECTO": "RECONOCIMIENTO FACIAL FASE 1", "SITIO": 17, "ADMINISTRA": "MANUELA SAENZ", "SECTOR": "MANUELA SAENZ", "DIRECCION": "MEJÍA Y ANTONIO BUSTAMANTE", "MARCA": "HIKIVISION", "MODELO": "DS-2DF8A436IX-AEL", "SERIE": 240959226, "PLATAFORMA": "HIKCENTRAL", "N__CAM": 22, "TIPO": "PTZ", "LATITUD": -0.2206, "LONGUITUD": -78.50883, "MEGAFONIA": "SI" }, "geometry": { "type": "Point", "coordinates": [ -78.50883, -0.2206 ] } },
{ "type": "Feature", "properties": { "PROYECTO": "RECONOCIMIENTO FACIAL FASE 1", "SITIO": 34, "ADMINISTRA": "MANUELA SAENZ", "SECTOR": "MANUELA SAENZ", "DIRECCION": "VENEZUELA Y 24 DE MAYO", "MARCA": "HIKIVISION", "MODELO": "DS-2DF8A436IX-AEL", "SERIE": 240959209, "PLATAFORMA": "HIKCENTRAL", "N__CAM": 48, "TIPO": "PTZ", "LATITUD": -0.22429, "LONGUITUD": -78.51503, "MEGAFONIA": "SI" }, "geometry": { "type": "Point", "coordinates": [ -78.51503, -0.22429 ] } },
{ "type": "Feature", "properties": { "PROYECTO": "RECONOCIMIENTO FACIAL FASE 1", "SITIO": 35, "ADMINISTRA": "MANUELA SAENZ", "SECTOR": "MANUELA SAENZ", "DIRECCION": "CUENCA Y 24 DE MAYO", "MARCA": "HIKIVISION", "MODELO": "DS-2DF8A436IX-AEL", "SERIE": 240959220, "PLATAFORMA": "HIKCENTRAL", "N__CAM": 49, "TIPO": "PTZ", "LATITUD": -0.22272, "LONGUITUD": -78.51671, "MEGAFONIA": "SI" }, "geometry": { "type": "Point", "coordinates": [ -78.51671, -0.22272 ] } },
{ "type": "Feature", "properties": { "PROYECTO": "RECONOCIMIENTO FACIAL FASE 1", "SITIO": 39, "ADMINISTRA": "MANUELA SAENZ", "SECTOR": "MANUELA SAENZ", "DIRECCION": "BOLÍVAR Y CHIMBORAZO", "MARCA": "HIKIVISION", "MODELO": "DS-2DF8A436IX-AEL", "SERIE": 240697713, "PLATAFORMA": "HIKCENTRAL", "N__CAM": 54, "TIPO": "PTZ", "LATITUD": -0.21939, "LONGUITUD": -78.517889, "MEGAFONIA": "SI" }, "geometry": { "type": "Point", "coordinates": [ -78.517889, -0.21939 ] } },
{ "type": "Feature", "properties": { "PROYECTO": "RECONOCIMIENTO FACIAL FASE 1", "SITIO": 43, "ADMINISTRA": "MANUELA SAENZ", "SECTOR": "MANUELA SAENZ", "DIRECCION": "CUMANDÁ Y 24 DE MAYO", "MARCA": "HIKIVISION", "MODELO": "DS-2DF8A436IX-AEL", "SERIE": 240959218, "PLATAFORMA": "HIKCENTRAL", "N__CAM": 62, "TIPO": "PTZ", "LATITUD": -0.21837, "LONGUITUD": -78.52154, "MEGAFONIA": "SI" }, "geometry": { "type": "Point", "coordinates": [ -78.52154, -0.21837 ] } },
{ "type": "Feature", "properties": { "PROYECTO": "RECONOCIMIENTO FACIAL FASE 1", "SITIO": 45, "ADMINISTRA": "MANUELA SAENZ", "SECTOR": "MANUELA SAENZ", "DIRECCION": "LOJA Y TÚPAC YUPANQUI", "MARCA": "HIKIVISION", "MODELO": "DS-2DF8A436IX-AEL", "SERIE": 240959205, "PLATAFORMA": "HIKCENTRAL", "N__CAM": 68, "TIPO": "PTZ", "LATITUD": -0.22065, "LONGUITUD": -78.52168, "MEGAFONIA": "SI" }, "geometry": { "type": "Point", "coordinates": [ -78.52168, -0.22065 ] } },
{ "type": "Feature", "properties": { "PROYECTO": "RECONOCIMIENTO FACIAL FASE 1", "SITIO": 47, "ADMINISTRA": "MANUELA SAENZ", "SECTOR": "MANUELA SAENZ", "DIRECCION": "MEJÍA Y JOSÉ LÓPEZ", "MARCA": "HIKIVISION", "MODELO": "DS-2DF8A436IX-AEL", "SERIE": 240959206, "PLATAFORMA": "HIKCENTRAL", "N__CAM": 73, "TIPO": "PTZ", "LATITUD": -0.21526, "LONGUITUD": -78.51584, "MEGAFONIA": "SI" }, "geometry": { "type": "Point", "coordinates": [ -78.51584, -0.21526 ] } },
{ "type": "Feature", "properties": { "PROYECTO": "RECONOCIMIENTO FACIAL FASE 2", "SITIO": 3, "ADMINISTRA": "MANUELA SAENZ", "SECTOR": "PANECILLO 1", "DIRECCION": "PANECILLO (MELCHOR AYMERICH CANCHAS)", "MARCA": "HIKIVISION", "MODELO": "DS-2DF8A436IX-AEL  C", "SERIE": 0, "PLATAFORMA": "HIKCENTRAL", "N__CAM": 83, "TIPO": "PTZ", "LATITUD": -0.226111, "LONGUITUD": -78.517778, "MEGAFONIA": "SI" }, "geometry": { "type": "Point", "coordinates": [ -78.517778, -0.226111 ] } },
{ "type": "Feature", "properties": { "PROYECTO": "RECONOCIMIENTO FACIAL FASE 2", "SITIO": 7, "ADMINISTRA": "MANUELA SAENZ", "SECTOR": "PANECILLO 2", "DIRECCION": "PANECILLO (PARTE ALTA DE LA VIRGEN)", "MARCA": "HIKIVISION", "MODELO": "DS-2DF8A436IX-AEL              C", "SERIE": 0, "PLATAFORMA": "HIKCENTRAL", "N__CAM": 90, "TIPO": "PTZ", "LATITUD": -0.228611, "LONGUITUD": -78.518611, "MEGAFONIA": "SI" }, "geometry": { "type": "Point", "coordinates": [ -78.518611, -0.228611 ] } },
{ "type": "Feature", "properties": { "PROYECTO": "RECONOCIMIENTO FACIAL FASE 2", "SITIO": 8, "ADMINISTRA": "MANUELA SAENZ", "SECTOR": "SAN ROQUE", "DIRECCION": "ABDÓN CALDERÓN Y CUMANDÁ", "MARCA": "HIKIVISION", "MODELO": "DS-2DF8A436IX-AEL              C", "SERIE": 0, "PLATAFORMA": "HIKCENTRAL", "N__CAM": 92, "TIPO": "PTZ", "LATITUD": -0.221111, "LONGUITUD": -78.522778, "MEGAFONIA": "SI" }, "geometry": { "type": "Point", "coordinates": [ -78.522778, -0.221111 ] } },
{ "type": "Feature", "properties": { "PROYECTO": "RECONOCIMIENTO FACIAL FASE 2", "SITIO": 11, "ADMINISTRA": "MARISCAL", "SECTOR": "MARISCAL 3", "DIRECCION": "CALLE CALAMA Y JUAN LEÓN MERA CON VISTA A LA CALLE CALAMA", "MARCA": "HIKIVISION", "MODELO": "DS-2DF8A436IX-AEL              C", "SERIE": 0, "PLATAFORMA": "HIKCENTRAL", "N__CAM": 100, "TIPO": "PTZ", "LATITUD": -0.201667, "LONGUITUD": -78.490833, "MEGAFONIA": "SI" }, "geometry": { "type": "Point", "coordinates": [ -78.490833, -0.201667 ] } },
{ "type": "Feature", "properties": { "PROYECTO": "RECONOCIMIENTO FACIAL FASE 2", "SITIO": 12, "ADMINISTRA": "MARISCAL", "SECTOR": "MARISCAL 3", "DIRECCION": "CALLE CALAMA CON VISTA A LA AVENIDA AMAZONAS", "MARCA": "HIKIVISION", "MODELO": "DS-2DF8A436IX-AEL              C", "SERIE": 0, "PLATAFORMA": "HIKCENTRAL", "N__CAM": 103, "TIPO": "PTZ", "LATITUD": -0.201111, "LONGUITUD": -78.491389, "MEGAFONIA": "SI" }, "geometry": { "type": "Point", "coordinates": [ -78.491389, -0.201111 ] } },
{ "type": "Feature", "properties": { "PROYECTO": "RECONOCIMIENTO FACIAL FASE 2", "SITIO": 14, "ADMINISTRA": "MARISCAL", "SECTOR": "MARISCAL 3", "DIRECCION": "CALLE JOAQUÍN PINTO Y REINA VICTORIA, ESQUINA", "MARCA": "HIKIVISION", "MODELO": "DS-2DF8A436IX-AEL              C", "SERIE": 0, "PLATAFORMA": "HIKCENTRAL", "N__CAM": 108, "TIPO": "PTZ", "LATITUD": -0.203056, "LONGUITUD": -78.491389, "MEGAFONIA": "SI" }, "geometry": { "type": "Point", "coordinates": [ -78.491389, -0.203056 ] } },
{ "type": "Feature", "properties": { "PROYECTO": "RECONOCIMIENTO FACIAL FASE 2", "SITIO": 23, "ADMINISTRA": "MARISCAL", "SECTOR": "MARISCAL 3", "DIRECCION": "CALLE FOCH CON VISTA A LA AVENIDA 6 DE DICIEMBRE, CORREDOR SEGURO", "MARCA": "HIKIVISION", "MODELO": "DS-2DF8A436IX-AEL              C", "SERIE": 0, "PLATAFORMA": "HIKCENTRAL", "N__CAM": 136, "TIPO": "PTZ", "LATITUD": -0.204167, "LONGUITUD": -78.489722, "MEGAFONIA": "SI" }, "geometry": { "type": "Point", "coordinates": [ -78.489722, -0.204167 ] } },
{ "type": "Feature", "properties": { "PROYECTO": "RECONOCIMIENTO FACIAL FASE 2", "SITIO": 24, "ADMINISTRA": "MARISCAL", "SECTOR": "MARISCAL 3", "DIRECCION": "CALLE DIEGO DE ALMAGRO Y LIZARDO GARCÍA, ESQUINA", "MARCA": "HIKIVISION", "MODELO": "DS-2DF8A436IX-AEL              C", "SERIE": 0, "PLATAFORMA": "HIKCENTRAL", "N__CAM": 138, "TIPO": "PTZ", "LATITUD": -0.203056, "LONGUITUD": -78.489444, "MEGAFONIA": "SI" }, "geometry": { "type": "Point", "coordinates": [ -78.489444, -0.203056 ] } },
{ "type": "Feature", "properties": { "PROYECTO": "RECONOCIMIENTO FACIAL FASE 2", "SITIO": 29, "ADMINISTRA": "EUGENIO ESPEJO", "SECTOR": "EL BOSQUE", "DIRECCION": "ALONSO TORRES Y AV. DEL PARQUE ", "MARCA": "HIKIVISION", "MODELO": "DS-2DF8A436IX-AEL              C", "SERIE": 0, "PLATAFORMA": "HIKCENTRAL", "N__CAM": 150, "TIPO": "PTZ", "LATITUD": -0.16, "LONGUITUD": -78.496667, "MEGAFONIA": "SI" }, "geometry": { "type": "Point", "coordinates": [ -78.496667, -0.16 ] } },
{ "type": "Feature", "properties": { "PROYECTO": "RECONOCIMIENTO FACIAL FASE 2", "SITIO": 31, "ADMINISTRA": "EUGENIO ESPEJO", "SECTOR": "SAN PEDRO CLAVER", "DIRECCION": "AV. MACHALA Y EMPERADOR CARLOS V", "MARCA": "HIKIVISION", "MODELO": "DS-2DF8A436IX-AEL              C", "SERIE": 0, "PLATAFORMA": "HIKCENTRAL", "N__CAM": 153, "TIPO": "PTZ", "LATITUD": -0.136389, "LONGUITUD": -78.496944, "MEGAFONIA": "SI" }, "geometry": { "type": "Point", "coordinates": [ -78.496944, -0.136389 ] } },
{ "type": "Feature", "properties": { "PROYECTO": "RECONOCIMIENTO FACIAL FASE 2", "SITIO": 35, "ADMINISTRA": "CALDERON", "SECTOR": "SAN JOSÉ ALTO", "DIRECCION": "EFRAIN ARMAS Y VIRGEN DE MONSERRATH", "MARCA": "HIKIVISION", "MODELO": "DS-2DF8A436IX-AEL              C", "SERIE": 0, "PLATAFORMA": "HIKCENTRAL", "N__CAM": 158, "TIPO": "PTZ", "LATITUD": -0.082778, "LONGUITUD": -78.425833, "MEGAFONIA": "SI" }, "geometry": { "type": "Point", "coordinates": [ -78.425833, -0.082778 ] } },
{ "type": "Feature", "properties": { "PROYECTO": "RECONOCIMIENTO FACIAL FASE 2", "SITIO": 36, "ADMINISTRA": "CALDERON", "SECTOR": "ZABALA", "DIRECCION": "GEOVANNI CALLES Y ARRIEROS", "MARCA": "HIKIVISION", "MODELO": "DS-2DF8A436IX-AEL              C", "SERIE": 0, "PLATAFORMA": "HIKCENTRAL", "N__CAM": 159, "TIPO": "PTZ", "LATITUD": -0.079722, "LONGUITUD": -78.413611, "MEGAFONIA": "SI" }, "geometry": { "type": "Point", "coordinates": [ -78.413611, -0.079722 ] } },
{ "type": "Feature", "properties": { "PROYECTO": "RECONOCIMIENTO FACIAL FASE 2", "SITIO": 47, "ADMINISTRA": "QUITUMBE", "SECTOR": "PACARILLACTA", "DIRECCION": "PEDRO VICENTE MALDONADO Y CONDOR ÑAN (PARADA DEL ECOVIA CAPULÍ)", "MARCA": "HIKIVISION", "MODELO": "DS-2DF8A436IX-AEL              C", "SERIE": 0, "PLATAFORMA": "HIKCENTRAL", "N__CAM": 181, "TIPO": "PTZ", "LATITUD": -0.299722, "LONGUITUD": -78.542222, "MEGAFONIA": "SI" }, "geometry": { "type": "Point", "coordinates": [ -78.542222, -0.299722 ] } },
{ "type": "Feature", "properties": { "PROYECTO": "RECONOCIMIENTO FACIAL FASE 2", "SITIO": 51, "ADMINISTRA": "QUITUMBE", "SECTOR": "SAN VICENTE CORNEJO", "DIRECCION": "FRANCISCO CAMPOS Y CLODOVE CARRIÓN ", "MARCA": "HIKIVISION", "MODELO": "DS-2DF8A436IX-AEL              C", "SERIE": 0, "PLATAFORMA": "HIKCENTRAL", "N__CAM": 190, "TIPO": "PTZ", "LATITUD": -0.332222, "LONGUITUD": -78.56, "MEGAFONIA": "SI" }, "geometry": { "type": "Point", "coordinates": [ -78.56, -0.332222 ] } },
{ "type": "Feature", "properties": { "PROYECTO": "RECONOCIMIENTO FACIAL FASE 2", "SITIO": 54, "ADMINISTRA": "QUITUMBE", "SECTOR": "PUEBLO SOLO PUEBLO", "DIRECCION": "S42 y S44 ", "MARCA": "HIKIVISION", "MODELO": "DS-2DF8A436IX-AEL              C", "SERIE": 0, "PLATAFORMA": "HIKCENTRAL", "N__CAM": 194, "TIPO": "PTZ", "LATITUD": -0.307778, "LONGUITUD": -78.545556, "MEGAFONIA": "SI" }, "geometry": { "type": "Point", "coordinates": [ -78.545556, -0.307778 ] } },
{ "type": "Feature", "properties": { "PROYECTO": "RECONOCIMIENTO FACIAL IC", "SITIO": 58, "ADMINISTRA": "MANUELA SAENZ", "SECTOR": "CENTRO HISTORICO", "DIRECCION": "AMBATO E IMBABURA", "MARCA": "HIKIVISION", "MODELO": "DS-2DF8A436IX-AEL              C", "SERIE": 0, "PLATAFORMA": "HIKCENTRAL", "N__CAM": 204, "TIPO": "PTZ", "LATITUD": -0.22246, "LONGUITUD": -78.51883, "MEGAFONIA": "SI" }, "geometry": { "type": "Point", "coordinates": [ -78.51883, -0.22246 ] } }
]
}
